[{"name": "Ang Mo Kio", "town": "Ang Mo Kio", "flatType": "2-Room Flexi, 3-Room, 4-Room", "region": "NORTH-EAST REGION", "lat": 1.37723, "lon": 103.852517}, {"name": "Bedok", "town": "Bedok", "flatType": "2-Room Flexi, 3-Room, 4-Room, 5-Room, 3Gen", "region": "EAST REGION", "lat": 1.327467, "lon": 103.920443}, {"name": "Bishan", "town": "Bishan", "flatType": "2-Room Flexi, 3-Room, 4-Room", "region": "CENTRAL REGION", "lat": 1.345934, "lon": 103.849374}, {"name": "Bukit Merah", "town": "Bukit Merah", "flatType": "2-Room Flexi, 3-Room, 4-Room", "region": "CENTRAL REGION", "lat": 1.270142, "lon": 103.807832}, {"name": "Bukit Merah", "town": "Bukit Merah", "flatType": "2-Room Flexi, 4-Room", "region": "CENTRAL REGION", "lat": 1.284901, "lon": 103.817304}, {"name": "Jurong East", "town": "Jurong East", "flatType": "2-Room Flexi, 3-Room, 4-Room, 5-Room, 3Gen", "region": "WEST REGION", "lat": 1.319908, "lon": 103.743912}, {"name": "Sengkang", "town": "Sengkang", "flatType": "Community Care Apartment, 2-Room Flexi, 4-Room, 5-Room", "region": "NORTH-EAST REGION", "lat": 1.39886, "lon": 103.87985}, {"name": "Toa Payoh", "town": "Toa Payoh", "flatType": "2-Room Flexi, 3-Room, 4-Room", "region": "CENTRAL REGION", "lat": 1.330322, "lon": 103.838266}, {"name": "Yishun", "town": "Yishun", "flatType": "2-Room Flexi, 3-Room, 4-Room, 5-Room", "region": "NORTH REGION", "lat": 1.417931, "lon": 103.828726}, {"name": "Yishun", "town": "Yishun", "flatType": "2-Room Flexi, 4-Room", "region": "NORTH REGION", "lat": 1.430822, "lon": 103.845352}]